{
  "version": "1.0",
  "places": {
    "home": {
      "label": "Home",
      "address": {
        "line1": "55616 Fallbrooke Dr.",
        "city": "Macomb Township",
        "state": "MI",
        "zip": "48042"
      }
    },

"dakota_main_entrance": {
  "label": "Dakota – 9th Grade Center",
  "address": {
    "line1": "21051 21 Mile Rd",
    "city": "Macomb Township",
    "state": "MI",
    "zip": "48044"
  },
  "coordinates": {

  "lat": 42.64583,
    "lng": -82.90750
  }
},
"dakota_gym_entrance": {
  "label": "Dakota – Gym",
  "address": {
    "line1": "21051 21 Mile Rd",
    "city": "Macomb Township",
    "state": "MI",
    "zip": "48044"
  },
  "coordinates": {
    "lat": 42.64628,
    "lng": -82.90983
  }
},
    "Work": {
      "label": "UAIS",
      "address": {
        "line1": "37400 Dodge Park Rd.",
        "city": "Sterling Heights",
        "state": "MI",
        "zip": "48312"
      },
      "coordinates": {
        "lat": 42.568499,
        "lng": -83.008492
    }
  }
}
}
